{
  "type": "FeatureCollection",
  "name": "school",
  "crs": {
    "type": "name",
    "properties": {
      "name": "urn:ogc:def:crs:OGC:1.3:CRS84"
    }
  },
  "features": [{
      "type": "Feature",
      "properties": {
        "id": 1,
        "name": "средняя школа №5",
        "p": 1600
      },
      "geometry": {
        "type": "Point",
        "coordinates": [83.181395592265, 54.937885391291]
      }
    },
    {
      "type": "Feature",
      "properties": {
        "id": 2,
        "name": "Биотехнологический лицей №21",
        "p": 2000
      },
      "geometry": {
        "type": "Point",
        "coordinates": [83.190113286008, 54.945157867692]
      }
    },
    {
      "type": "Feature",
      "properties": {
        "id": 3,
        "name": "Школа №3 \"Технополис\"",
        "p": 0
      },
      "geometry": {
        "type": "Point",
        "coordinates": [83.191629872107, 54.934588154689]
      }
    }
    {
      "type": "Feature",
      "properties": {
        "id": 4,
        "name": "Детский сад \"Сказка\"",
        "p": 0
      },
      "geometry": {
        "type": "Point",
        "coordinates": [83.1806865, 54.9398815]
      }
    }
    {
      "type": "Feature",
      "properties": {
        "id": 5,
        "name": "Детский сад \"Радуга\"",
        "p": 0
      },
      "geometry": {
        "type": "Point",
        "coordinates": [83.1867170, 54.9431017]
      }
    }
    {
      "type": "Feature",
      "properties": {
        "id": 6,
        "name": "Детский сад \"Егорка\"",
        "p": 0
      },
      "geometry": {
        "type": "Point",
        "coordinates": [83.18668094, 54.94152111]
      }
    }
    {
      "type": "Feature",
      "properties": {
        "id": 7,
        "name": "Детский сад \"Лёвушка\"",
        "p": 0
      },
      "geometry": {
        "type": "Point",
        "coordinates": [83.1933358, 54.9356191]
      }
    }
    {
      "type": "Feature",
      "properties": {
        "id": 8,
        "name": "Детский сад \"Совёнок\"",
        "p": 0
      },
      "geometry": {
        "type": "Point",
        "coordinates": [83.1987712, 54.9376456]
      }
    }
  ]
}
